stop_id,stop_name,stop_lat,stop_lon
RS_ACC1_S-1-0150,서울역,37.555870000,126.972100000
RS_ACC1_S-1-0151,시청,37.565710000,126.977120000
RS_ACC1_S-1-0152,종각,37.570160000,126.982920000
RS_ACC1_S-1-0153,종로3가,37.570420000,126.992110000
RS_ACC1_S-1-0154,종로5가,37.570930000,127.001850000
RS_ACC1_S-1-0155,동대문,37.571710000,127.010960000
RS_ACC1_S-1-0156,신설동,37.576010000,127.024460000
RS_ACC1_S-1-0157,제기동,37.578100000,127.034890000
RS_ACC1_S-1-0158,청량리,37.580110000,127.045040000
RS_ACC1_S-1-0159,동묘앞,37.573170000,127.016330000
RS_ACC1_S-1-0201,시청,37.563570000,126.975400000
RS_ACC1_S-1-0202,을지로입구,37.566010000,126.982620000
RS_ACC1_S-1-0203,을지로3가,37.566250000,126.990970000
RS_ACC1_S-1-0204,을지로4가,37.566600000,126.997650000
RS_ACC1_S-1-0205,동대문역사문화공원,37.565610000,127.009040000
RS_ACC1_S-1-0206,신당,37.565640000,127.019620000
RS_ACC1_S-1-0207,상왕십리,37.564350000,127.029350000
RS_ACC1_S-1-0208,왕십리,37.561200000,127.037700000
RS_ACC1_S-1-0209,한양대,37.555270000,127.043660000
RS_ACC1_S-1-0210,뚝섬,37.547180000,127.047370000
RS_ACC1_S-1-0211,성수,37.544580000,127.055960000
RS_ACC1_S-1-0212,건대입구,37.540390000,127.069190000
RS_ACC1_S-1-0213,구의,37.537080000,127.085920000
RS_ACC1_S-1-0214,강변,37.535100000,127.094680000
RS_ACC1_S-1-0215,잠실나루,37.520730000,127.103790000
RS_ACC1_S-1-0216,잠실,37.513290000,127.100160000
RS_ACC1_S-1-0217,잠실새내,37.511690000,127.086160000
RS_ACC1_S-1-0218,종합운동장,37.511050000,127.073670000
RS_ACC1_S-1-0219,삼성,37.508840000,127.063160000
RS_ACC1_S-1-0220,선릉,37.504480000,127.048880000
RS_ACC1_S-1-0221,역삼,37.500620000,127.036460000
RS_ACC1_S-1-0222,강남,37.497920000,127.027570000
RS_ACC1_S-1-0223,교대,37.493960000,127.014650000
RS_ACC1_S-1-0224,서초,37.491900000,127.007920000
RS_ACC1_S-1-0225,방배,37.481430000,126.997600000
RS_ACC1_S-1-0226,사당,37.476530000,126.981620000
RS_ACC1_S-1-0227,낙성대,37.476930000,126.963690000
RS_ACC1_S-1-0228,서울대입구,37.481250000,126.952740000
RS_ACC1_S-1-0229,봉천,37.482360000,126.941890000
RS_ACC1_S-1-0230,신림,37.484200000,126.929720000
RS_ACC1_S-1-0231,신대방,37.487460000,126.913150000
RS_ACC1_S-1-0232,구로디지털단지,37.485270000,126.901400000
RS_ACC1_S-1-0233,대림,37.493260000,126.894960000
RS_ACC1_S-1-0234,신도림,37.508660000,126.891350000
RS_ACC1_S-1-0235,문래,37.517930000,126.894760000
RS_ACC1_S-1-0236,영등포구청,37.525780000,126.896610000
RS_ACC1_S-1-0237,당산,37.534960000,126.902730000
RS_ACC1_S-1-0238,합정,37.550020000,126.914530000
RS_ACC1_S-1-0239,홍대입구,37.556740000,126.923690000
RS_ACC1_S-1-0240,신촌,37.555130000,126.936890000
RS_ACC1_S-1-0241,이대,37.556730000,126.946010000
RS_ACC1_S-1-0242,아현,37.557350000,126.956140000
RS_ACC1_S-1-0243,충정로,37.559740000,126.964470000
RS_ACC1_S-1-0244,용답,37.561900000,127.050900000
RS_ACC1_S-1-0245,신답,37.570040000,127.046480000
RS_ACC1_S-1-0246,신설동,37.574670000,127.025110000
RS_ACC1_S-1-0247,도림천,37.514290000,126.882770000
RS_ACC1_S-1-0248,양천구청,37.512400000,126.865820000
RS_ACC1_S-1-0249,신정네거리,37.520070000,126.852910000
RS_ACC1_S-1-0250,용두,37.574030000,127.038090000
RS_ACC1_S-1-0309,지축,37.648050000,126.913950000
RS_ACC1_S-1-0310,구파발,37.636760000,126.918820000
RS_ACC1_S-1-0311,연신내,37.619080000,126.921170000
RS_ACC1_S-1-0312,불광,37.610120000,126.930180000
RS_ACC1_S-1-0313,녹번,37.600930000,126.935760000
RS_ACC1_S-1-0314,홍제,37.589070000,126.943740000
RS_ACC1_S-1-0315,무악재,37.582300000,126.950290000
RS_ACC1_S-1-0316,독립문,37.574570000,126.957750000
RS_ACC1_S-1-0317,경복궁,37.575760000,126.973530000
RS_ACC1_S-1-0318,안국,37.576480000,126.985440000
RS_ACC1_S-1-0319,종로3가,37.571480000,126.991850000
RS_ACC1_S-1-0320,을지로3가,37.566340000,126.992600000
RS_ACC1_S-1-0321,충무로,37.561440000,126.994060000
RS_ACC1_S-1-0322,동대입구,37.559050000,127.005600000
RS_ACC1_S-1-0323,약수,37.554320000,127.010960000
RS_ACC1_S-1-0324,금호,37.548030000,127.015870000
RS_ACC1_S-1-0325,옥수,37.541690000,127.017280000
RS_ACC1_S-1-0326,압구정,37.527070000,127.028460000
RS_ACC1_S-1-0327,신사,37.516330000,127.020110000
RS_ACC1_S-1-0328,잠원,37.512760000,127.011220000
RS_ACC1_S-1-0329,고속터미널,37.504900000,127.004920000
RS_ACC1_S-1-0330,교대,37.493060000,127.013790000
RS_ACC1_S-1-0331,남부터미널,37.485010000,127.016190000
RS_ACC1_S-1-0332,양재,37.484500000,127.034110000
RS_ACC1_S-1-0333,매봉,37.486950000,127.046770000
RS_ACC1_S-1-0334,도곡,37.490910000,127.055450000
RS_ACC1_S-1-0335,대치,37.494610000,127.063640000
RS_ACC1_S-1-0336,학여울,37.496660000,127.070590000
RS_ACC1_S-1-0337,대청,37.493510000,127.079530000
RS_ACC1_S-1-0338,일원,37.483680000,127.084390000
RS_ACC1_S-1-0339,수서,37.487400000,127.101990000
RS_ACC1_S-1-0340,가락시장,37.492290000,127.117790000
RS_ACC1_S-1-0341,경찰병원,37.495920000,127.124540000
RS_ACC1_S-1-0342,오금,37.502150000,127.128320000
RS_ACC1_S-1-0405,진접,37.719870000,127.203200000
RS_ACC1_S-1-0406,오남,37.705200000,127.191050000
RS_ACC1_S-1-0408,별내별가람,37.667830000,127.116160000
RS_ACC1_S-1-0409,당고개,37.670270000,127.079070000
RS_ACC1_S-1-0410,상계,37.660880000,127.073570000
RS_ACC1_S-1-0411,노원,37.656280000,127.063230000
RS_ACC1_S-1-0412,창동,37.653170000,127.047620000
RS_ACC1_S-1-0413,쌍문,37.648630000,127.034710000
RS_ACC1_S-1-0414,수유,37.638050000,127.025730000
RS_ACC1_S-1-0415,미아,37.626670000,127.025980000
RS_ACC1_S-1-0416,미아사거리,37.613290000,127.030050000
RS_ACC1_S-1-0417,길음,37.603410000,127.025050000
RS_ACC1_S-1-0418,성신여대입구,37.592620000,127.016400000
RS_ACC1_S-1-0419,한성대입구,37.588460000,127.006220000
RS_ACC1_S-1-0420,혜화,37.582340000,127.001840000
RS_ACC1_S-1-0421,동대문,37.570940000,127.009300000
RS_ACC1_S-1-0422,동대문역사문화공원,37.565150000,127.007870000
RS_ACC1_S-1-0423,충무로,37.561240000,126.994220000
RS_ACC1_S-1-0424,명동,37.560990000,126.986330000
RS_ACC1_S-1-0425,회현,37.558510000,126.978250000
RS_ACC1_S-1-0426,서울역,37.553110000,126.972650000
RS_ACC1_S-1-0427,숙대입구,37.544560000,126.972110000
RS_ACC1_S-1-0428,삼각지,37.533980000,126.972500000
RS_ACC1_S-1-0429,신용산,37.529170000,126.967890000
RS_ACC1_S-1-0430,이촌,37.522310000,126.974560000
RS_ACC1_S-1-0431,동작,37.502890000,126.980340000
RS_ACC1_S-1-0432,총신대입구,37.487480000,126.982230000
RS_ACC1_S-1-0433,사당,37.476950000,126.981650000
RS_ACC1_S-1-0434,남태령,37.463870000,126.989130000
RS_ACC1_S-1-1001,서울역,37.553420000,126.971700000
RS_ACC1_S-1-1002,남영,37.541020000,126.971300000
RS_ACC1_S-1-1003,용산,37.529850000,126.964560000
RS_ACC1_S-1-1004,노량진,37.514100000,126.942200000
RS_ACC1_S-1-1005,대방,37.513340000,126.926380000
RS_ACC1_S-1-1006,영등포,37.515500000,126.907630000
RS_ACC1_S-1-1007,신도림,37.508970000,126.891490000
RS_ACC1_S-1-1008,이촌,37.522330000,126.973690000
RS_ACC1_S-1-1009,서빙고,37.519590000,126.988540000
RS_ACC1_S-1-1010,한남,37.529430000,127.009170000
RS_ACC1_S-1-1011,옥수,37.540500000,127.018740000
RS_ACC1_S-1-1012,응봉,37.549950000,127.034540000
RS_ACC1_S-1-1013,왕십리,37.561900000,127.038340000
RS_ACC1_S-1-1014,청량리,37.580810000,127.048370000
RS_ACC1_S-1-1015,회기,37.589460000,127.057580000
RS_ACC1_S-1-1016,외대앞,37.596070000,127.063550000
RS_ACC1_S-1-1017,신이문,37.601850000,127.067330000
RS_ACC1_S-1-1018,석계,37.615000000,127.065740000
RS_ACC1_S-1-1019,광운대,37.623630000,127.061840000
RS_ACC1_S-1-1020,월계,37.633210000,127.058830000
RS_ACC1_S-1-1021,녹천,37.644800000,127.051270000
RS_ACC1_S-1-1022,창동,37.653030000,127.047790000
RS_ACC1_S-1-1023,선릉,37.504640000,127.048930000
RS_ACC1_S-1-1024,한티,37.496240000,127.052870000
RS_ACC1_S-1-1025,도곡,37.491050000,127.055320000
RS_ACC1_S-1-1026,구룡,37.486840000,127.058860000
RS_ACC1_S-1-1027,개포동,37.489120000,127.066140000
RS_ACC1_S-1-1028,대모산입구,37.491370000,127.072720000
RS_ACC1_S-1-1030,수서,37.487250000,127.101690000
RS_ACC1_S-1-1031,복정,37.470370000,127.126680000
RS_ACC1_S-1-1032,신길,37.516680000,126.918500000
RS_ACC1_S-1-1201,중랑,37.594920000,127.076120000
RS_ACC1_S-1-1202,상봉,37.596680000,127.085030000
RS_ACC1_S-1-1203,망우,37.599250000,127.092320000
RS_ACC1_S-1-1204,양원,37.606600000,127.107910000
RS_ACC1_S-1-1205,구리,37.603390000,127.143870000
RS_ACC1_S-1-1206,도농,37.608810000,127.161150000
RS_ACC1_S-1-1207,양정,37.605330000,127.193640000
RS_ACC1_S-1-1208,덕소,37.586780000,127.208830000
RS_ACC1_S-1-1209,도심,37.579620000,127.222670000
RS_ACC1_S-1-1210,팔당,37.547370000,127.243940000
RS_ACC1_S-1-1211,운길산,37.554670000,127.310120000
RS_ACC1_S-1-1212,양수,37.545980000,127.329100000
RS_ACC1_S-1-1213,신원,37.525550000,127.372920000
RS_ACC1_S-1-1214,국수,37.516170000,127.399370000
RS_ACC1_S-1-1215,아신,37.513820000,127.443170000
RS_ACC1_S-1-1216,오빈,37.506060000,127.473870000
RS_ACC1_S-1-1217,양평,37.492830000,127.491810000
RS_ACC1_S-1-1218,원덕,37.468670000,127.547080000
RS_ACC1_S-1-1219,용문,37.482230000,127.594650000
RS_ACC1_S-1-1220,지평,37.476400000,127.629680000
RS_ACC1_S-1-1251,서울역,37.557190000,126.971270000
RS_ACC1_S-1-1252,신촌,37.559780000,126.942320000
RS_ACC1_S-1-1261,효창공원앞,37.538660000,126.962350000
RS_ACC1_S-1-1262,공덕,37.542590000,126.952170000
RS_ACC1_S-1-1263,서강대,37.551880000,126.935710000
RS_ACC1_S-1-1264,홍대입구,37.557590000,126.926760000
RS_ACC1_S-1-1265,가좌,37.568490000,126.915490000
RS_ACC1_S-1-1266,디지털미디어시티,37.577380000,126.900630000
RS_ACC1_S-1-1267,수색,37.580840000,126.895610000
RS_ACC1_S-1-1268,화전,37.602890000,126.868390000
RS_ACC1_S-1-1269,강매,37.612310000,126.843220000
RS_ACC1_S-1-1270,행신,37.612100000,126.834150000
RS_ACC1_S-1-1271,능곡,37.618810000,126.820780000
RS_ACC1_S-1-1272,곡산,37.645680000,126.801760000
RS_ACC1_S-1-1273,백마,37.658240000,126.794460000
RS_ACC1_S-1-1274,풍산,37.672350000,126.786240000
RS_ACC1_S-1-1275,일산,37.682080000,126.769850000
RS_ACC1_S-1-1276,탄현,37.694020000,126.761090000
RS_ACC1_S-1-1277,야당,37.712330000,126.761360000
RS_ACC1_S-1-1278,운정,37.725830000,126.767260000
RS_ACC1_S-1-1279,금릉,37.751320000,126.765350000
RS_ACC1_S-1-1280,금촌,37.766220000,126.774640000
RS_ACC1_S-1-1282,월롱,37.796190000,126.792590000
RS_ACC1_S-1-1283,파주,37.815300000,126.792780000
RS_ACC1_S-1-1284,문산,37.854620000,126.788050000
RS_ACC1_S-1-1285,운천,37.879740000,126.769790000
RS_ACC1_S-1-1286,임진강,37.888270000,126.746930000
RS_ACC1_S-1-1309,상봉,37.596850000,127.085100000
RS_ACC1_S-1-1310,망우,37.599910000,127.091540000
RS_ACC1_S-1-1311,신내,37.612890000,127.103220000
RS_ACC1_S-1-1312,갈매,37.634120000,127.114760000
RS_ACC1_S-1-1313,별내,37.642020000,127.126840000
RS_ACC1_S-1-1314,퇴계원,37.648310000,127.143950000
RS_ACC1_S-1-1315,사릉,37.651080000,127.176930000
RS_ACC1_S-1-1316,금곡,37.637380000,127.207850000
RS_ACC1_S-1-1317,평내호평,37.653230000,127.244490000
RS_ACC1_S-1-1318,천마산,37.658980000,127.285380000
RS_ACC1_S-1-1319,마석,37.652780000,127.311770000
RS_ACC1_S-1-1320,대성리,37.684070000,127.379320000
RS_ACC1_S-1-1321,청평,37.735490000,127.426610000
RS_ACC1_S-1-1322,상천,37.770250000,127.454820000
RS_ACC1_S-1-1323,가평,37.814540000,127.510740000
RS_ACC1_S-1-1324,굴봉산,37.832070000,127.557700000
RS_ACC1_S-1-1325,백양리,37.830780000,127.589330000
RS_ACC1_S-1-1326,강촌,37.805720000,127.634150000
RS_ACC1_S-1-1327,김유정,37.818470000,127.714340000
RS_ACC1_S-1-1328,남춘천,37.864010000,127.723790000
RS_ACC1_S-1-1329,춘천,37.885050000,127.717020000
RS_ACC1_S-1-1401,봉명,36.801220000,127.135760000
RS_ACC1_S-1-1402,쌍용,36.793760000,127.121400000
RS_ACC1_S-1-1403,아산,36.792050000,127.104360000
RS_ACC1_S-1-1404,탕정,36.788400000,127.084990000
RS_ACC1_S-1-1405,배방,36.777630000,127.052990000
RS_ACC1_S-1-1407,온양온천,36.780480000,127.003250000
RS_ACC1_S-1-1408,신창,36.769500000,126.951110000
RS_ACC1_S-1-1450,선바위,37.451670000,127.002300000
RS_ACC1_S-1-1451,경마공원,37.443890000,127.007890000
RS_ACC1_S-1-1452,대공원,37.435680000,127.006520000
RS_ACC1_S-1-1453,과천,37.433020000,126.996570000
RS_ACC1_S-1-1454,정부과천청사,37.426510000,126.989780000
RS_ACC1_S-1-1455,인덕원,37.401550000,126.976720000
RS_ACC1_S-1-1456,평촌,37.394290000,126.963880000
RS_ACC1_S-1-1457,범계,37.389790000,126.950810000
RS_ACC1_S-1-1501,판교,37.394910000,127.111350000
RS_ACC1_S-1-1502,이매,37.394650000,127.127410000
RS_ACC1_S-1-1503,삼동,37.409520000,127.203360000
RS_ACC1_S-1-1504,경기광주,37.399910000,127.252630000
RS_ACC1_S-1-1505,초월,37.374420000,127.299000000
RS_ACC1_S-1-1506,곤지암,37.351320000,127.346740000
RS_ACC1_S-1-1507,신둔도예촌,37.317190000,127.404760000
RS_ACC1_S-1-1508,이천,37.265580000,127.442260000
RS_ACC1_S-1-1509,부발,37.260190000,127.490280000
RS_ACC1_S-1-1510,세종대왕릉,37.295310000,127.570940000
RS_ACC1_S-1-1511,여주,37.282910000,127.628460000
RS_ACC1_S-1-1701,구로,37.503040000,126.881970000
RS_ACC1_S-1-1702,가산디지털단지,37.481590000,126.882590000
RS_ACC1_S-1-1703,금천구청,37.455630000,126.893980000
RS_ACC1_S-1-1704,석수,37.435050000,126.902300000
RS_ACC1_S-1-1705,관악,37.419230000,126.908710000
RS_ACC1_S-1-1706,안양,37.401590000,126.922870000
RS_ACC1_S-1-1707,명학,37.384650000,126.935430000
RS_ACC1_S-1-1708,금정,37.372220000,126.943430000
RS_ACC1_S-1-1709,군포,37.353560000,126.948460000
RS_ACC1_S-1-1710,의왕,37.320850000,126.948220000
RS_ACC1_S-1-1711,성균관대,37.300350000,126.970750000
RS_ACC1_S-1-1712,화서,37.283860000,126.989630000
RS_ACC1_S-1-1713,수원,37.266160000,126.999710000
RS_ACC1_S-1-1714,독산,37.466610000,126.889250000
RS_ACC1_S-1-1715,세류,37.245030000,127.013220000
RS_ACC1_S-1-1716,병점,37.207500000,127.032730000
RS_ACC1_S-1-1717,세마,37.187530000,127.043180000
RS_ACC1_S-1-1718,오산대,37.168950000,127.063200000
RS_ACC1_S-1-1719,오산,37.145890000,127.066720000
RS_ACC1_S-1-1720,진위,37.109450000,127.062280000
RS_ACC1_S-1-1721,송탄,37.075700000,127.054300000
RS_ACC1_S-1-1722,서정리,37.056500000,127.052820000
RS_ACC1_S-1-1723,지제,37.018800000,127.070440000
RS_ACC1_S-1-1724,평택,36.990730000,127.085160000
RS_ACC1_S-1-1725,성환,36.916080000,127.126960000
RS_ACC1_S-1-1726,직산,36.870590000,127.143900000
RS_ACC1_S-1-1727,두정,36.833710000,127.148960000
RS_ACC1_S-1-1728,천안,36.810010000,127.146830000
RS_ACC1_S-1-1729,당정,37.344290000,126.948350000
RS_ACC1_S-1-1749,서동탄,37.195500000,127.051670000
RS_ACC1_S-1-1750,광명,37.416180000,126.884470000
RS_ACC1_S-1-1751,산본,37.358100000,126.933270000
RS_ACC1_S-1-1752,대야미,37.328470000,126.917330000
RS_ACC1_S-1-1753,반월,37.312210000,126.903520000
RS_ACC1_S-1-1754,상록수,37.302800000,126.866490000
RS_ACC1_S-1-1755,한대앞,37.309690000,126.853440000
RS_ACC1_S-1-1756,중앙,37.315940000,126.838570000
RS_ACC1_S-1-1757,고잔,37.316780000,126.823250000
RS_ACC1_S-1-1758,초지,37.320650000,126.805910000
RS_ACC1_S-1-1759,안산,37.327080000,126.788530000
RS_ACC1_S-1-1760,신길온천,37.338210000,126.765840000
RS_ACC1_S-1-1761,정왕,37.351740000,126.742990000
RS_ACC1_S-1-1762,오이도,37.362360000,126.738710000
RS_ACC1_S-1-1763,수리산,37.349800000,126.925370000
RS_ACC1_S-1-1801,개봉,37.494590000,126.858680000
RS_ACC1_S-1-1802,오류동,37.494530000,126.845370000
RS_ACC1_S-1-1803,역곡,37.485180000,126.811500000
RS_ACC1_S-1-1804,부천,37.484050000,126.782690000
RS_ACC1_S-1-1805,송내,37.487600000,126.753660000
RS_ACC1_S-1-1806,부평,37.489460000,126.724480000
RS_ACC1_S-1-1807,백운,37.483660000,126.707700000
RS_ACC1_S-1-1808,동암,37.471410000,126.702900000
RS_ACC1_S-1-1809,주안,37.465090000,126.679400000
RS_ACC1_S-1-1810,제물포,37.466770000,126.656670000
RS_ACC1_S-1-1811,동인천,37.475280000,126.632800000
RS_ACC1_S-1-1812,인천,37.476200000,126.616830000
RS_ACC1_S-1-1813,구일,37.496760000,126.870790000
RS_ACC1_S-1-1814,소사,37.482750000,126.795440000
RS_ACC1_S-1-1815,부개,37.488420000,126.741090000
RS_ACC1_S-1-1816,간석,37.464740000,126.694180000
RS_ACC1_S-1-1817,도원,37.468450000,126.642710000
RS_ACC1_S-1-1821,온수,37.492360000,126.823820000
RS_ACC1_S-1-1822,중동,37.486560000,126.764840000
RS_ACC1_S-1-1823,도화,37.466070000,126.668670000
RS_ACC1_S-1-1846,수원,37.266230000,127.000200000
RS_ACC1_S-1-1847,서울숲,37.543620000,127.044710000
RS_ACC1_S-1-1848,압구정로데오,37.527380000,127.040530000
RS_ACC1_S-1-1849,강남구청,37.516660000,127.041460000
RS_ACC1_S-1-1850,선정릉,37.510740000,127.043660000
RS_ACC1_S-1-1851,가천대,37.448610000,127.126700000
RS_ACC1_S-1-1852,태평,37.440020000,127.127710000
RS_ACC1_S-1-1853,모란,37.432090000,127.129120000
RS_ACC1_S-1-1854,야탑,37.411190000,127.128720000
RS_ACC1_S-1-1855,서현,37.385130000,127.123590000
RS_ACC1_S-1-1856,수내,37.378460000,127.114320000
RS_ACC1_S-1-1857,정자,37.366010000,127.108080000
RS_ACC1_S-1-1858,미금,37.350080000,127.108910000
RS_ACC1_S-1-1859,오리,37.339820000,127.108940000
RS_ACC1_S-1-1860,이매,37.395560000,127.128210000
RS_ACC1_S-1-1861,보정,37.312750000,127.108200000
RS_ACC1_S-1-1862,죽전,37.324750000,127.107400000
RS_ACC1_S-1-1863,구성,37.298970000,127.105660000
RS_ACC1_S-1-1864,신갈,37.286100000,127.111310000
RS_ACC1_S-1-1865,기흥,37.275070000,127.115920000
RS_ACC1_S-1-1866,상갈,37.261810000,127.108850000
RS_ACC1_S-1-1867,청명,37.259490000,127.078930000
RS_ACC1_S-1-1868,영통,37.251570000,127.071390000
RS_ACC1_S-1-1869,망포,37.245800000,127.057350000
RS_ACC1_S-1-1870,매탄권선,37.252760000,127.040570000
RS_ACC1_S-1-1871,수원시청,37.261910000,127.030740000
RS_ACC1_S-1-1872,매교,37.265480000,127.015680000
RS_ACC1_S-1-1873,고색,37.249680000,126.980360000
RS_ACC1_S-1-1874,오목천,37.243410000,126.963980000
RS_ACC1_S-1-1875,어천,37.250100000,126.908810000
RS_ACC1_S-1-1876,야목,37.261300000,126.883960000
RS_ACC1_S-1-1877,사리,37.290890000,126.857140000
RS_ACC1_S-1-1878,달월,37.379680000,126.745180000
RS_ACC1_S-1-1879,월곶,37.391770000,126.742700000
RS_ACC1_S-1-1880,소래포구,37.400950000,126.733520000
RS_ACC1_S-1-1881,인천논현,37.400610000,126.722480000
RS_ACC1_S-1-1882,호구포,37.401640000,126.708630000
RS_ACC1_S-1-1883,남동인더스파크,37.407720000,126.695220000
RS_ACC1_S-1-1884,원인재,37.413110000,126.686550000
RS_ACC1_S-1-1885,연수,37.417800000,126.678940000
RS_ACC1_S-1-1886,송도,37.428510000,126.657770000
RS_ACC1_S-1-1888,인하대,37.448490000,126.649620000
RS_ACC1_S-1-1889,숭의,37.460790000,126.638300000
RS_ACC1_S-1-1890,신포,37.468740000,126.623850000
RS_ACC1_S-1-1891,인천,37.476600000,126.617450000
RS_ACC1_S-1-1901,방학,37.667500000,127.044270000
RS_ACC1_S-1-1902,도봉,37.679560000,127.045600000
RS_ACC1_S-1-1903,도봉산,37.689560000,127.046050000
RS_ACC1_S-1-1904,망월사,37.709910000,127.047460000
RS_ACC1_S-1-1905,회룡,37.724380000,127.047370000
RS_ACC1_S-1-1906,의정부,37.738420000,127.045960000
RS_ACC1_S-1-1907,가능,37.748580000,127.044210000
RS_ACC1_S-1-1908,녹양,37.759380000,127.042290000
RS_ACC1_S-1-1909,양주,37.774380000,127.044710000
RS_ACC1_S-1-1910,덕계,37.818490000,127.056490000
RS_ACC1_S-1-1911,덕정,37.843190000,127.061280000
RS_ACC1_S-1-1912,지행,37.892330000,127.055720000
RS_ACC1_S-1-1913,동두천중앙,37.901890000,127.056480000
RS_ACC1_S-1-1914,보산,37.913700000,127.057280000
RS_ACC1_S-1-1915,동두천,37.927880000,127.054790000
RS_ACC1_S-1-1916,소요산,37.948100000,127.061030000
RS_ACC1_S-1-1948,원흥,37.650660000,126.872640000
RS_ACC1_S-1-1950,삼송,37.653080000,126.895560000
RS_ACC1_S-1-1951,원당,37.653320000,126.843040000
RS_ACC1_S-1-1952,화정,37.634590000,126.832650000
RS_ACC1_S-1-1953,대곡,37.631630000,126.811030000
RS_ACC1_S-1-1954,백석,37.643110000,126.787870000
RS_ACC1_S-1-1955,마두,37.652210000,126.777620000
RS_ACC1_S-1-1956,정발산,37.659480000,126.773360000
RS_ACC1_S-1-1957,주엽,37.670070000,126.761330000
RS_ACC1_S-1-1958,대화,37.676090000,126.747570000
RS_ACC1_S-1-2511,방화,37.577450000,126.812740000
RS_ACC1_S-1-2512,개화산,37.572400000,126.806170000
RS_ACC1_S-1-2513,김포공항,37.562090000,126.801270000
RS_ACC1_S-1-2514,송정,37.561180000,126.811970000
RS_ACC1_S-1-2515,마곡,37.560180000,126.825450000
RS_ACC1_S-1-2516,발산,37.558600000,126.837670000
RS_ACC1_S-1-2517,우장산,37.548770000,126.836320000
RS_ACC1_S-1-2518,화곡,37.541510000,126.840460000
RS_ACC1_S-1-2519,까치산,37.531770000,126.846680000
RS_ACC1_S-1-2520,신정,37.525000000,126.856190000
RS_ACC1_S-1-2521,목동,37.526070000,126.864930000
RS_ACC1_S-1-2522,오목교,37.524500000,126.875180000
RS_ACC1_S-1-2523,양평,37.525650000,126.885780000
RS_ACC1_S-1-2524,영등포구청,37.524190000,126.895050000
RS_ACC1_S-1-2525,영등포시장,37.522670000,126.905140000
RS_ACC1_S-1-2526,신길,37.517630000,126.914930000
RS_ACC1_S-1-2527,여의도,37.521730000,126.924300000
RS_ACC1_S-1-2528,여의나루,37.527100000,126.932900000
RS_ACC1_S-1-2529,마포,37.539570000,126.945930000
RS_ACC1_S-1-2530,공덕,37.544690000,126.951570000
RS_ACC1_S-1-2531,애오개,37.553740000,126.956820000
RS_ACC1_S-1-2532,충정로,37.560430000,126.963000000
RS_ACC1_S-1-2533,서대문,37.565770000,126.966640000
RS_ACC1_S-1-2534,광화문,37.571030000,126.976670000
RS_ACC1_S-1-2535,종로3가,37.572550000,126.990490000
RS_ACC1_S-1-2536,을지로4가,37.567230000,126.998070000
RS_ACC1_S-1-2537,동대문역사문화공원,37.564680000,127.005350000
RS_ACC1_S-1-2538,청구,37.560190000,127.013910000
RS_ACC1_S-1-2539,신금호,37.554550000,127.020330000
RS_ACC1_S-1-2540,행당,37.557320000,127.029480000
RS_ACC1_S-1-2541,왕십리,37.561980000,127.037340000
RS_ACC1_S-1-2542,마장,37.566100000,127.042970000
RS_ACC1_S-1-2543,답십리,37.566750000,127.052700000
RS_ACC1_S-1-2544,장한평,37.561440000,127.064620000
RS_ACC1_S-1-2545,군자,37.557120000,127.079530000
RS_ACC1_S-1-2546,아차산,37.551690000,127.089760000
RS_ACC1_S-1-2547,광나루,37.545300000,127.103570000
RS_ACC1_S-1-2548,천호,37.538460000,127.123900000
RS_ACC1_S-1-2549,강동,37.535800000,127.132480000
RS_ACC1_S-1-2550,길동,37.537800000,127.140000000
RS_ACC1_S-1-2551,굽은다리,37.545480000,127.142850000
RS_ACC1_S-1-2552,명일,37.551370000,127.144000000
RS_ACC1_S-1-2553,고덕,37.555000000,127.154150000
RS_ACC1_S-1-2554,상일동,37.556710000,127.166420000
RS_ACC1_S-1-2555,둔촌동,37.527790000,127.136250000
RS_ACC1_S-1-2556,올림픽공원,37.516080000,127.130850000
RS_ACC1_S-1-2557,방이,37.508860000,127.126130000
RS_ACC1_S-1-2558,오금,37.502140000,127.127860000
RS_ACC1_S-1-2559,개롱,37.498080000,127.134820000
RS_ACC1_S-1-2560,거여,37.493110000,127.144150000
RS_ACC1_S-1-2561,마천,37.494990000,127.152780000
RS_ACC1_S-1-2562,강일,37.557420000,127.175740000
RS_ACC1_S-1-2563,미사,37.563050000,127.192940000
RS_ACC1_S-1-2564,하남풍산,37.552150000,127.203930000
RS_ACC1_S-1-2565,하남시청,37.541910000,127.206400000
RS_ACC1_S-1-2566,하남검단산,37.539750000,127.223270000
RS_ACC1_S-1-2611,응암,37.598610000,126.915580000
RS_ACC1_S-1-2612,역촌,37.606020000,126.922740000
RS_ACC1_S-1-2613,불광,37.610880000,126.929410000
RS_ACC1_S-1-2614,독바위,37.618460000,126.933030000
RS_ACC1_S-1-2615,연신내,37.618580000,126.920490000
RS_ACC1_S-1-2616,구산,37.611380000,126.917270000
RS_ACC1_S-1-2617,새절,37.591150000,126.913630000
RS_ACC1_S-1-2618,증산,37.583880000,126.909650000
RS_ACC1_S-1-2619,디지털미디어시티,37.576050000,126.901360000
RS_ACC1_S-1-2620,월드컵경기장,37.569530000,126.899300000
RS_ACC1_S-1-2621,마포구청,37.563520000,126.903340000
RS_ACC1_S-1-2622,망원,37.556090000,126.910050000
RS_ACC1_S-1-2623,합정,37.549050000,126.913510000
RS_ACC1_S-1-2624,상수,37.547720000,126.922850000
RS_ACC1_S-1-2625,광흥창,37.547460000,126.931990000
RS_ACC1_S-1-2626,대흥,37.547770000,126.942070000
RS_ACC1_S-1-2627,공덕,37.543580000,126.951700000
RS_ACC1_S-1-2628,효창공원앞,37.539240000,126.961370000
RS_ACC1_S-1-2629,삼각지,37.535550000,126.974060000
RS_ACC1_S-1-2630,녹사평,37.534680000,126.986700000
RS_ACC1_S-1-2631,이태원,37.534490000,126.994300000
RS_ACC1_S-1-2632,한강진,37.539630000,127.001730000
RS_ACC1_S-1-2633,버티고개,37.548010000,127.007060000
RS_ACC1_S-1-2634,약수,37.554100000,127.010240000
RS_ACC1_S-1-2635,청구,37.560260000,127.013810000
RS_ACC1_S-1-2636,신당,37.566170000,127.016160000
RS_ACC1_S-1-2637,동묘앞,37.572280000,127.015650000
RS_ACC1_S-1-2638,창신,37.579660000,127.015240000
RS_ACC1_S-1-2639,보문,37.585290000,127.019380000
RS_ACC1_S-1-2640,안암,37.586270000,127.029010000
RS_ACC1_S-1-2641,고려대,37.590510000,127.036300000
RS_ACC1_S-1-2642,월곡,37.601950000,127.041520000
RS_ACC1_S-1-2643,상월곡,37.606380000,127.048490000
RS_ACC1_S-1-2644,돌곶이,37.610540000,127.056430000
RS_ACC1_S-1-2645,석계,37.614930000,127.065910000
RS_ACC1_S-1-2646,태릉입구,37.617340000,127.074730000
RS_ACC1_S-1-2647,화랑대,37.620060000,127.084690000
RS_ACC1_S-1-2648,봉화산,37.617280000,127.091400000
RS_ACC1_S-1-2649,신내,37.612500000,127.104220000
RS_ACC1_S-1-2711,장암,37.700110000,127.053200000
RS_ACC1_S-1-2712,도봉산,37.689250000,127.046520000
RS_ACC1_S-1-2713,수락산,37.677850000,127.055320000
RS_ACC1_S-1-2714,마들,37.664940000,127.057680000
RS_ACC1_S-1-2715,노원,37.654670000,127.060490000
RS_ACC1_S-1-2716,중계,37.644580000,127.064300000
RS_ACC1_S-1-2717,하계,37.636350000,127.067990000
RS_ACC1_S-1-2718,공릉,37.625740000,127.072900000
RS_ACC1_S-1-2719,태릉입구,37.618340000,127.075370000
RS_ACC1_S-1-2720,먹골,37.610640000,127.077730000
RS_ACC1_S-1-2721,중화,37.602550000,127.079260000
RS_ACC1_S-1-2722,상봉,37.595600000,127.085750000
RS_ACC1_S-1-2723,면목,37.588580000,127.087500000
RS_ACC1_S-1-2724,사가정,37.580890000,127.088480000
RS_ACC1_S-1-2725,용마산,37.573650000,127.086730000
RS_ACC1_S-1-2726,중곡,37.565920000,127.084320000
RS_ACC1_S-1-2727,군자,37.557040000,127.079440000
RS_ACC1_S-1-2728,어린이대공원,37.548010000,127.074660000
RS_ACC1_S-1-2729,건대입구,37.540790000,127.071020000
RS_ACC1_S-1-2730,뚝섬유원지,37.531540000,127.066700000
RS_ACC1_S-1-2731,청담,37.519370000,127.053350000
RS_ACC1_S-1-2732,강남구청,37.517180000,127.041300000
RS_ACC1_S-1-2733,학동,37.514230000,127.031660000
RS_ACC1_S-1-2734,논현,37.511090000,127.021420000
RS_ACC1_S-1-2735,반포,37.508180000,127.011730000
RS_ACC1_S-1-2736,고속터미널,37.503320000,127.004970000
RS_ACC1_S-1-2737,내방,37.487620000,126.993510000
RS_ACC1_S-1-2738,총신대입구,37.485270000,126.981790000
RS_ACC1_S-1-2739,남성,37.484600000,126.971250000
RS_ACC1_S-1-2740,숭실대입구,37.496030000,126.953820000
RS_ACC1_S-1-2741,상도,37.502830000,126.947910000
RS_ACC1_S-1-2742,장승배기,37.504900000,126.939150000
RS_ACC1_S-1-2743,신대방삼거리,37.499700000,126.928280000
RS_ACC1_S-1-2744,보라매,37.499870000,126.920430000
RS_ACC1_S-1-2745,신풍,37.500080000,126.909930000
RS_ACC1_S-1-2746,대림,37.492790000,126.896700000
RS_ACC1_S-1-2747,남구로,37.486060000,126.887250000
RS_ACC1_S-1-2748,가산디지털단지,37.480340000,126.882630000
RS_ACC1_S-1-2749,철산,37.476050000,126.867910000
RS_ACC1_S-1-2750,광명사거리,37.479250000,126.854880000
RS_ACC1_S-1-2751,천왕,37.486640000,126.838710000
RS_ACC1_S-1-2752,온수,37.492040000,126.823260000
RS_ACC1_S-1-2753,까치울,37.506210000,126.810940000
RS_ACC1_S-1-2754,부천종합운동장,37.505380000,126.797340000
RS_ACC1_S-1-2755,춘의,37.503660000,126.787040000
RS_ACC1_S-1-2756,신중동,37.503050000,126.775960000
RS_ACC1_S-1-2757,부천시청,37.504630000,126.763540000
RS_ACC1_S-1-2758,상동,37.505780000,126.753080000
RS_ACC1_S-1-2759,삼산체육관,37.506410000,126.742150000
RS_ACC1_S-1-2760,굴포천,37.507000000,126.731280000
RS_ACC1_S-1-2761,부평구청,37.507420000,126.721050000
RS_ACC1_S-1-2811,암사,37.550210000,127.127560000
RS_ACC1_S-1-2812,천호,37.537880000,127.123160000
RS_ACC1_S-1-2813,강동구청,37.530340000,127.120510000
RS_ACC1_S-1-2814,몽촌토성,37.517410000,127.112360000
RS_ACC1_S-1-2815,잠실,37.514610000,127.104200000
RS_ACC1_S-1-2816,석촌,37.505430000,127.106980000
RS_ACC1_S-1-2817,송파,37.499700000,127.112180000
RS_ACC1_S-1-2818,가락시장,37.493060000,127.118240000
RS_ACC1_S-1-2819,문정,37.485860000,127.122500000
RS_ACC1_S-1-2820,장지,37.478700000,127.126190000
RS_ACC1_S-1-2821,복정,37.471060000,127.126730000
RS_ACC1_S-1-2822,산성,37.457120000,127.149910000
RS_ACC1_S-1-2823,남한산성입구,37.451540000,127.159820000
RS_ACC1_S-1-2824,단대오거리,37.445210000,127.156870000
RS_ACC1_S-1-2825,신흥,37.440920000,127.147560000
RS_ACC1_S-1-2826,수진,37.437430000,127.140720000
RS_ACC1_S-1-2827,모란,37.433830000,127.129750000
RS_ACC1_S-1-2828,남위례,37.463030000,127.139350000
RS_ACC1_S-1-3110,계양,37.571480000,126.736090000
RS_ACC1_S-1-3111,귤현,37.566380000,126.742650000
RS_ACC1_S-1-3112,박촌,37.553700000,126.745080000
RS_ACC1_S-1-3113,임학,37.545060000,126.738670000
RS_ACC1_S-1-3114,계산,37.543240000,126.728130000
RS_ACC1_S-1-3115,경인교대입구,37.538160000,126.722600000
RS_ACC1_S-1-3116,작전,37.530420000,126.722530000
RS_ACC1_S-1-3117,갈산,37.517270000,126.721510000
RS_ACC1_S-1-3118,부평구청,37.508340000,126.720520000
RS_ACC1_S-1-3119,부평시장,37.498380000,126.722240000
RS_ACC1_S-1-3120,부평,37.490470000,126.723430000
RS_ACC1_S-1-3121,동수,37.485310000,126.718250000
RS_ACC1_S-1-3122,부평삼거리,37.477680000,126.710210000
RS_ACC1_S-1-3123,간석오거리,37.467050000,126.707940000
RS_ACC1_S-1-3124,인천시청,37.457510000,126.702180000
RS_ACC1_S-1-3125,예술회관,37.449400000,126.701010000
RS_ACC1_S-1-3126,인천터미널,37.442380000,126.699710000
RS_ACC1_S-1-3127,문학경기장,37.434940000,126.698580000
RS_ACC1_S-1-3128,선학,37.426680000,126.698860000
RS_ACC1_S-1-3129,신연수,37.418040000,126.693860000
RS_ACC1_S-1-3130,원인재,37.412360000,126.687860000
RS_ACC1_S-1-3131,동춘,37.404740000,126.681020000
RS_ACC1_S-1-3132,동막,37.397880000,126.674010000
RS_ACC1_S-1-3133,캠퍼스타운,37.387860000,126.661670000
RS_ACC1_S-1-3134,테크노파크,37.382270000,126.656370000
RS_ACC1_S-1-3135,지식정보단지,37.378380000,126.645170000
RS_ACC1_S-1-3136,인천대입구,37.386010000,126.639480000
RS_ACC1_S-1-3137,센트럴파크,37.393050000,126.634730000
RS_ACC1_S-1-3138,국제업무지구,37.399910000,126.630350000
RS_ACC1_S-1-3139,송도달빛축제공원,37.406770000,126.626090000
RS_ACC1_S-1-3201,검단오류,37.594880000,126.627180000
RS_ACC1_S-1-3202,왕길,37.595180000,126.642700000
RS_ACC1_S-1-3203,검단사거리,37.601850000,126.657110000
RS_ACC1_S-1-3204,마전,37.597570000,126.667000000
RS_ACC1_S-1-3205,완정,37.592930000,126.673200000
RS_ACC1_S-1-3206,독정,37.585210000,126.675840000
RS_ACC1_S-1-3207,검암,37.568730000,126.675580000
RS_ACC1_S-1-3208,검바위,37.561410000,126.677570000
RS_ACC1_S-1-3209,아시아드경기장,37.551700000,126.677120000
RS_ACC1_S-1-3210,서구청,37.543740000,126.676790000
RS_ACC1_S-1-3211,가정,37.524650000,126.675540000
RS_ACC1_S-1-3212,가정중앙시장,37.517050000,126.676670000
RS_ACC1_S-1-3213,석남,37.506190000,126.676200000
RS_ACC1_S-1-3214,서부여성회관,37.500310000,126.675850000
RS_ACC1_S-1-3215,인천가좌,37.489700000,126.675210000
RS_ACC1_S-1-3216,가재울,37.484190000,126.683670000
RS_ACC1_S-1-3217,주안국가산단,37.473700000,126.681130000
RS_ACC1_S-1-3218,주안,37.465140000,126.678820000
RS_ACC1_S-1-3219,시민공원,37.458340000,126.681190000
RS_ACC1_S-1-3220,석바위시장,37.457610000,126.692580000
RS_ACC1_S-1-3221,인천시청,37.456870000,126.701020000
RS_ACC1_S-1-3222,석천사거리,37.456810000,126.709990000
RS_ACC1_S-1-3223,모래내시장,37.455830000,126.719300000
RS_ACC1_S-1-3224,만수,37.454910000,126.732090000
RS_ACC1_S-1-3225,남동구청,37.448160000,126.736940000
RS_ACC1_S-1-3226,인천대공원,37.448770000,126.752620000
RS_ACC1_S-1-3227,운연,37.440130000,126.759970000
RS_ACC1_S-1-3762,신곡,37.508600000,126.703550000
RS_ACC1_S-1-3763,석남,37.506230000,126.676090000
RS_ACC1_S-1-4101,개화,37.578610000,126.798150000
RS_ACC1_S-1-4102,김포공항,37.561910000,126.801770000
RS_ACC1_S-1-4103,공항시장,37.563730000,126.810680000
RS_ACC1_S-1-4104,신방화,37.567530000,126.816600000
RS_ACC1_S-1-4105,마곡나루,37.567340000,126.829500000
RS_ACC1_S-1-4106,양천향교,37.568380000,126.841330000
RS_ACC1_S-1-4107,가양,37.561390000,126.854460000
RS_ACC1_S-1-4108,증미,37.557400000,126.861940000
RS_ACC1_S-1-4109,등촌,37.550630000,126.865690000
RS_ACC1_S-1-4110,염창,37.546940000,126.874920000
RS_ACC1_S-1-4111,신목동,37.544280000,126.883080000
RS_ACC1_S-1-4112,선유도,37.538020000,126.893530000
RS_ACC1_S-1-4113,당산,37.533450000,126.902760000
RS_ACC1_S-1-4114,국회의사당,37.528110000,126.917870000
RS_ACC1_S-1-4115,여의도,37.521600000,126.924200000
RS_ACC1_S-1-4116,샛강,37.517270000,126.928420000
RS_ACC1_S-1-4117,노량진,37.513560000,126.940990000
RS_ACC1_S-1-4118,노들,37.512890000,126.953220000
RS_ACC1_S-1-4119,흑석,37.508770000,126.963710000
RS_ACC1_S-1-4120,동작,37.502870000,126.978120000
RS_ACC1_S-1-4121,구반포,37.501360000,126.987330000
RS_ACC1_S-1-4122,신반포,37.503420000,126.995930000
RS_ACC1_S-1-4123,고속터미널,37.506020000,127.004390000
RS_ACC1_S-1-4124,사평,37.504210000,127.015260000
RS_ACC1_S-1-4125,신논현,37.504600000,127.025060000
RS_ACC1_S-1-4126,언주,37.507290000,127.033870000
RS_ACC1_S-1-4127,선정릉,37.510290000,127.043970000
RS_ACC1_S-1-4128,삼성중앙,37.513010000,127.053280000
RS_ACC1_S-1-4129,봉은사,37.514220000,127.060250000
RS_ACC1_S-1-4130,종합운동장,37.511700000,127.076880000
RS_ACC1_S-1-4131,삼전,37.504550000,127.087360000
RS_ACC1_S-1-4132,석촌고분,37.502460000,127.096510000
RS_ACC1_S-1-4133,석촌,37.504970000,127.106760000
RS_ACC1_S-1-4134,송파나루,37.511020000,127.112660000
RS_ACC1_S-1-4135,한성백제,37.516540000,127.116450000
RS_ACC1_S-1-4136,올림픽공원,37.516120000,127.130250000
RS_ACC1_S-1-4137,둔촌오륜,37.519410000,127.138650000
RS_ACC1_S-1-4138,중앙보훈병원,37.528400000,127.148410000
RS_ACC1_S-1-4201,서울역,37.553290000,126.969730000
RS_ACC1_S-1-4202,공덕,37.542490000,126.952090000
RS_ACC1_S-1-4203,홍대입구,37.557500000,126.926640000
RS_ACC1_S-1-4204,디지털미디어시티,37.577340000,126.898080000
RS_ACC1_S-1-4206,마곡나루,37.565630000,126.827500000
RS_ACC1_S-1-4208,계양,37.571740000,126.736270000
RS_ACC1_S-1-4209,검암,37.569090000,126.674030000
RS_ACC1_S-1-4210,청라국제도시,37.555880000,126.625330000
RS_ACC1_S-1-4211,운서,37.492900000,126.493790000
RS_ACC1_S-1-4212,공항화물청사,37.458370000,126.476240000
RS_ACC1_S-1-4213,인천공항1터미널,37.447460000,126.452510000
RS_ACC1_S-1-4215,인천공항2터미널,37.468710000,126.433720000
RS_ACC1_S-1-4217,영종,37.511470000,126.523700000
RS_ACC1_S-1-4304,신사,37.516110000,127.019540000
RS_ACC1_S-1-4305,논현,37.510330000,127.021720000
RS_ACC1_S-1-4306,신논현,37.503560000,127.024950000
RS_ACC1_S-1-4307,강남,37.496850000,127.028120000
RS_ACC1_S-1-4308,양재,37.483640000,127.034870000
RS_ACC1_S-1-4309,양재시민의숲,37.470020000,127.038420000
RS_ACC1_S-1-4310,청계산입구,37.447210000,127.055660000
RS_ACC1_S-1-4311,판교,37.394930000,127.111160000
RS_ACC1_S-1-4312,정자,37.367400000,127.108400000
RS_ACC1_S-1-4313,미금,37.350070000,127.108800000
RS_ACC1_S-1-4314,동천,37.337930000,127.102980000
RS_ACC1_S-1-4315,수지구청,37.322700000,127.095030000
RS_ACC1_S-1-4316,성복,37.313340000,127.080100000
RS_ACC1_S-1-4317,상현,37.297660000,127.069340000
RS_ACC1_S-1-4318,광교중앙,37.288620000,127.051480000
RS_ACC1_S-1-4319,광교,37.302110000,127.044480000
RS_ACC1_S-1-4401,샛강,37.517120000,126.929440000
RS_ACC1_S-1-4402,대방,37.512630000,126.925340000
RS_ACC1_S-1-4403,서울지방병무청,37.506050000,126.922710000
RS_ACC1_S-1-4404,보라매,37.500330000,126.920450000
RS_ACC1_S-1-4405,보라매공원,37.495460000,126.918140000
RS_ACC1_S-1-4406,보라매병원,37.492960000,126.923500000
RS_ACC1_S-1-4407,당곡,37.490220000,126.927540000
RS_ACC1_S-1-4408,신림,37.485030000,126.929600000
RS_ACC1_S-1-4409,서원,37.478250000,126.933100000
RS_ACC1_S-1-4410,서울대벤처타운,37.472020000,126.933910000
RS_ACC1_S-1-4411,관악산,37.469140000,126.945030000
RS_ACC1_S-1-4501,기흥,37.275460000,127.116660000
RS_ACC1_S-1-4502,강남대,37.270160000,127.126030000
RS_ACC1_S-1-4503,지석,37.269610000,127.136520000
RS_ACC1_S-1-4504,어정,37.274920000,127.143710000
RS_ACC1_S-1-4505,동백,37.269040000,127.152720000
RS_ACC1_S-1-4506,초당,37.260750000,127.159440000
RS_ACC1_S-1-4508,삼가,37.242120000,127.168080000
RS_ACC1_S-1-4509,시청·용인대,37.239150000,127.178410000
RS_ACC1_S-1-4510,명지대,37.237960000,127.190290000
RS_ACC1_S-1-4511,김량장,37.237250000,127.198780000
RS_ACC1_S-1-4512,운동장·송담대,37.237850000,127.209200000
RS_ACC1_S-1-4513,고진,37.244840000,127.214250000
RS_ACC1_S-1-4514,보평,37.258970000,127.218460000
RS_ACC1_S-1-4515,둔전,37.267050000,127.213640000
RS_ACC1_S-1-4517,전대·에버랜드,37.285340000,127.219560000
RS_ACC1_S-1-4601,발곡,37.727050000,127.052800000
RS_ACC1_S-1-4602,회룡,37.725000000,127.047050000
RS_ACC1_S-1-4603,범골,37.728760000,127.043530000
RS_ACC1_S-1-4604,경전철의정부,37.737200000,127.043260000
RS_ACC1_S-1-4605,의정부시청,37.739260000,127.034780000
RS_ACC1_S-1-4606,흥선,37.743300000,127.037020000
RS_ACC1_S-1-4607,의정부중앙,37.743680000,127.049570000
RS_ACC1_S-1-4608,동오,37.745270000,127.056950000
RS_ACC1_S-1-4609,새말,37.748890000,127.063620000
RS_ACC1_S-1-4610,경기도청북부청사,37.750590000,127.071500000
RS_ACC1_S-1-4611,효자,37.754030000,127.076900000
RS_ACC1_S-1-4612,곤제,37.750470000,127.083720000
RS_ACC1_S-1-4613,어룡,37.742800000,127.085040000
RS_ACC1_S-1-4614,송산,37.737280000,127.087160000
RS_ACC1_S-1-4615,탑석,37.733580000,127.088700000
RS_ACC1_S-1-4701,북한산우이,37.663030000,127.012710000
RS_ACC1_S-1-4702,솔밭공원,37.656030000,127.013280000
RS_ACC1_S-1-4703,4·19민주묘지,37.649530000,127.013780000
RS_ACC1_S-1-4704,가오리,37.641560000,127.016800000
RS_ACC1_S-1-4705,화계,37.634120000,127.017580000
RS_ACC1_S-1-4706,삼양,37.626980000,127.018170000
RS_ACC1_S-1-4707,삼양사거리,37.621280000,127.020550000
RS_ACC1_S-1-4708,솔샘,37.620250000,127.013650000
RS_ACC1_S-1-4709,북한산보국문,37.612080000,127.008310000
RS_ACC1_S-1-4710,정릉,37.602670000,127.013550000
RS_ACC1_S-1-4711,성신여대입구,37.592390000,127.016530000
RS_ACC1_S-1-4712,보문,37.585040000,127.019540000
RS_ACC1_S-1-4713,신설동,37.576570000,127.023180000
RS_ACC1_S-1-4804,소사,37.482910000,126.795060000
RS_ACC1_S-1-4805,소새울,37.468510000,126.797280000
RS_ACC1_S-1-4806,시흥대야,37.450100000,126.792990000
RS_ACC1_S-1-4807,신천,37.439240000,126.786790000
RS_ACC1_S-1-4808,신현,37.409570000,126.787840000
RS_ACC1_S-1-4809,시흥시청,37.381560000,126.805950000
RS_ACC1_S-1-4810,시흥능곡,37.369950000,126.808720000
RS_ACC1_S-1-4811,달미,37.348790000,126.809420000
RS_ACC1_S-1-4812,선부,37.334410000,126.809990000
RS_ACC1_S-1-4813,초지,37.319740000,126.807840000
RS_ACC1_S-1-4814,원곡,37.313160000,126.795740000
RS_ACC1_S-1-4815,원시,37.302620000,126.786790000
RS_ACC1_S-1-4920,양촌,37.641780000,126.614630000
RS_ACC1_S-1-4921,구래,37.645390000,126.628580000
RS_ACC1_S-1-4922,마산,37.640610000,126.644000000
RS_ACC1_S-1-4923,장기,37.644070000,126.669080000
RS_ACC1_S-1-4924,운양,37.653780000,126.683840000
RS_ACC1_S-1-4925,걸포북변,37.631640000,126.705780000
RS_ACC1_S-1-4926,사우,37.620320000,126.719770000
RS_ACC1_S-1-4927,풍무,37.612430000,126.732450000
RS_ACC1_S-1-4928,고촌,37.601210000,126.770330000
RS_ACC1_S-1-4929,김포공항,37.562330000,126.801990000
RS_ACC1_S-2-0095,다대포해수욕장,35.089950000,128.973970000
RS_ACC1_S-2-0096,다대포항역,35.081630000,128.977640000
RS_ACC1_S-2-0097,낫개역,35.074430000,128.977040000
RS_ACC1_S-2-0098,신장림역,35.065270000,128.979870000
RS_ACC1_S-2-0099,장림역,35.057420000,128.971280000
RS_ACC1_S-2-0100,동매역,35.048620000,128.965910000
RS_ACC1_S-2-0101,신평역,35.095180000,128.960560000
RS_ACC1_S-2-0102,하단역,35.106180000,128.966800000
RS_ACC1_S-2-0103,당리역,35.103530000,128.973850000
RS_ACC1_S-2-0104,사하역,35.099850000,128.983100000
RS_ACC1_S-2-0105,괴정역,35.099820000,128.992140000
RS_ACC1_S-2-0106,대티역,35.103130000,128.999940000
RS_ACC1_S-2-0107,서대신역,35.110940000,129.012180000
RS_ACC1_S-2-0108,동대신역,35.110450000,129.017680000
RS_ACC1_S-2-0109,토성역,35.100730000,129.019780000
RS_ACC1_S-2-0110,자갈치역,35.097370000,129.026670000
RS_ACC1_S-2-0111,남포역,35.097950000,129.034870000
RS_ACC1_S-2-0112,중앙역,35.103840000,129.036370000
RS_ACC1_S-2-0113,부산역,35.115220000,129.039700000
RS_ACC1_S-2-0114,초량역,35.121170000,129.043040000
RS_ACC1_S-2-0115,부산진역,35.127790000,129.047890000
RS_ACC1_S-2-0116,좌천역,35.134360000,129.054460000
RS_ACC1_S-2-0117,범일역,35.140950000,129.059350000
RS_ACC1_S-2-0118,범내골역,35.147400000,129.059260000
RS_ACC1_S-2-0119,서면역,35.158280000,129.059560000
RS_ACC1_S-2-0120,부전역,35.162590000,129.062950000
RS_ACC1_S-2-0121,양정역,35.173120000,129.071370000
RS_ACC1_S-2-0122,시청역,35.179840000,129.076640000
RS_ACC1_S-2-0123,연산역,35.186170000,129.081530000
RS_ACC1_S-2-0124,교대역,35.196050000,129.080040000
RS_ACC1_S-2-0125,동래역,35.205640000,129.078510000
RS_ACC1_S-2-0126,명륜역,35.212550000,129.079660000
RS_ACC1_S-2-0127,온천장역,35.220250000,129.086440000
RS_ACC1_S-2-0128,부산대역,35.229610000,129.089360000
RS_ACC1_S-2-0129,장전역,35.238110000,129.088110000
RS_ACC1_S-2-0130,구서역,35.247410000,129.091330000
RS_ACC1_S-2-0131,두실역,35.256960000,129.091390000
RS_ACC1_S-2-0132,남산역,35.265400000,129.092500000
RS_ACC1_S-2-0133,범어사역,35.273110000,129.092680000
RS_ACC1_S-2-0134,노포역,35.283660000,129.094970000
RS_ACC1_S-2-0201,장산역,35.169910000,129.176990000
RS_ACC1_S-2-0202,중동역,35.166700000,129.168600000
RS_ACC1_S-2-0203,해운대역,35.163670000,129.158910000
RS_ACC1_S-2-0204,동백역,35.161480000,129.147900000
RS_ACC1_S-2-0205,벡스코역,35.168840000,129.138930000
RS_ACC1_S-2-0206,센텀시티역,35.168830000,129.131750000
RS_ACC1_S-2-0207,민락역,35.167230000,129.121910000
RS_ACC1_S-2-0208,수영역,35.165230000,129.114710000
RS_ACC1_S-2-0209,광안역,35.157920000,129.113170000
RS_ACC1_S-2-0210,금련산역,35.149770000,129.110960000
RS_ACC1_S-2-0211,남천역,35.142140000,129.107980000
RS_ACC1_S-2-0212,경성대부경대역,35.137590000,129.100550000
RS_ACC1_S-2-0213,대연역,35.135150000,129.092160000
RS_ACC1_S-2-0214,못골역,35.134730000,129.084420000
RS_ACC1_S-2-0215,지게골역,35.135570000,129.074370000
RS_ACC1_S-2-0216,문현역,35.139150000,129.067400000
RS_ACC1_S-2-0217,국제금융센터부산은행역,35.145820000,129.066760000
RS_ACC1_S-2-0218,전포역,35.153100000,129.065370000
RS_ACC1_S-2-0219,서면역,35.157740000,129.059080000
RS_ACC1_S-2-0220,부암역,35.157440000,129.050190000
RS_ACC1_S-2-0221,가야역,35.155880000,129.042820000
RS_ACC1_S-2-0222,동의대역,35.153990000,129.032750000
RS_ACC1_S-2-0223,개금역,35.153280000,129.020530000
RS_ACC1_S-2-0224,냉정역,35.151250000,129.012260000
RS_ACC1_S-2-0225,주례역,35.150510000,129.003080000
RS_ACC1_S-2-0226,감전역,35.155530000,128.991150000
RS_ACC1_S-2-0227,사상역,35.162360000,128.984620000
RS_ACC1_S-2-0228,덕포역,35.173750000,128.983960000
RS_ACC1_S-2-0229,모덕역,35.180370000,128.985620000
RS_ACC1_S-2-0230,모라역,35.189660000,128.988660000
RS_ACC1_S-2-0231,구남역,35.196800000,128.994930000
RS_ACC1_S-2-0232,구명역,35.202520000,128.999320000
RS_ACC1_S-2-0233,덕천역,35.210220000,129.005670000
RS_ACC1_S-2-0234,수정역,35.223360000,129.009200000
RS_ACC1_S-2-0235,화명역,35.236280000,129.013920000
RS_ACC1_S-2-0236,율리역,35.246710000,129.012920000
RS_ACC1_S-2-0237,동원역,35.258660000,129.012390000
RS_ACC1_S-2-0238,금곡역,35.267250000,129.016670000
RS_ACC1_S-2-0239,호포역,35.280410000,129.017100000
RS_ACC1_S-2-0240,증산역,35.308300000,129.010250000
RS_ACC1_S-2-0241,부산대양산캠퍼스역,35.316960000,129.013900000
RS_ACC1_S-2-0242,남양산역,35.325360000,129.019460000
RS_ACC1_S-2-0243,양산역,35.338650000,129.026390000
RS_ACC1_S-2-0301,수영역,35.167750000,129.114590000
RS_ACC1_S-2-0302,망미역,35.171530000,129.108230000
RS_ACC1_S-2-0303,배산역,35.173500000,129.095500000
RS_ACC1_S-2-0304,물만골역,35.176810000,129.085750000
RS_ACC1_S-2-0305,연산역,35.186170000,129.081530000
RS_ACC1_S-2-0306,거제역,35.188590000,129.073940000
RS_ACC1_S-2-0307,종합운동장역,35.191250000,129.067500000
RS_ACC1_S-2-0308,사직역,35.199000000,129.065000000
RS_ACC1_S-2-0309,미남역,35.205500000,129.068060000
RS_ACC1_S-2-0310,만덕역,35.213000000,129.036530000
RS_ACC1_S-2-0311,남산정역,35.213340000,129.023930000
RS_ACC1_S-2-0312,숙등역,35.211970000,129.012750000
RS_ACC1_S-2-0313,덕천역,35.210220000,129.005670000
RS_ACC1_S-2-0314,구포역,35.206700000,128.996370000
RS_ACC1_S-2-0315,강서구청역,35.211250000,128.981760000
RS_ACC1_S-2-0316,체육공원역,35.212580000,128.968970000
RS_ACC1_S-2-0317,대저역,35.213390000,128.959960000
RS_ACC1_S-2-0401,미남역,35.207120000,129.069170000
RS_ACC1_S-2-0402,동래역,35.204830000,129.077080000
RS_ACC1_S-2-0403,수안역,35.201830000,129.083810000
RS_ACC1_S-2-0404,낙민역,35.200250000,129.090770000
RS_ACC1_S-2-0405,충렬사역,35.199860000,129.097640000
RS_ACC1_S-2-0406,명장역,35.205140000,129.101520000
RS_ACC1_S-2-0407,서동역,35.213330000,129.107680000
RS_ACC1_S-2-0408,금사역,35.215830000,129.115150000
RS_ACC1_S-2-0409,반여농산물시장역,35.217780000,129.124060000
RS_ACC1_S-2-0410,석대역,35.218220000,129.137180000
RS_ACC1_S-2-0411,영산대역,35.225780000,129.146150000
RS_ACC1_S-2-0412,동부산대학역,35.232510000,129.154020000
RS_ACC1_S-2-0413,고촌역,35.236030000,129.160490000
RS_ACC1_S-2-0414,안평역,35.237360000,129.171820000
RS_ACC1_S-2-4801,사상,35.162340000,128.986000000
RS_ACC1_S-2-4802,괘법르네시떼,35.163290000,128.977650000
RS_ACC1_S-2-4803,서부산유통지구,35.166420000,128.954880000
RS_ACC1_S-2-4804,공항,35.171920000,128.948630000
RS_ACC1_S-2-4805,덕두,35.182020000,128.954210000
RS_ACC1_S-2-4806,등구,35.196170000,128.963600000
RS_ACC1_S-2-4807,대저,35.213050000,128.960650000
RS_ACC1_S-2-4808,평강,35.214040000,128.950760000
RS_ACC1_S-2-4809,대사,35.217680000,128.938430000
RS_ACC1_S-2-4810,불암,35.222180000,128.927890000
RS_ACC1_S-2-4811,지내,35.227490000,128.923780000
RS_ACC1_S-2-4812,김해대학,35.229010000,128.915570000
RS_ACC1_S-2-4813,인제대,35.228110000,128.901780000
RS_ACC1_S-2-4814,김해시청,35.227070000,128.890420000
RS_ACC1_S-2-4815,부원,35.226490000,128.883990000
RS_ACC1_S-2-4816,봉황,35.227260000,128.874380000
RS_ACC1_S-2-4817,수로왕릉,35.232820000,128.872200000
RS_ACC1_S-2-4818,박물관,35.240070000,128.871930000
RS_ACC1_S-2-4819,연지공원,35.249600000,128.869290000
RS_ACC1_S-2-4820,장신대,35.259550000,128.867220000
RS_ACC1_S-2-4821,가야대,35.266790000,128.865010000
RS_ACC1_S-2-8001,부전,35.164030000,129.059440000
RS_ACC1_S-2-8002,거제해맞이,35.181210000,129.069010000
RS_ACC1_S-2-8003,거제,35.189570000,129.074320000
RS_ACC1_S-2-8004,교대,35.193710000,129.079520000
RS_ACC1_S-2-8005,동래,35.197200000,129.091330000
RS_ACC1_S-2-8006,안락,35.196090000,129.100650000
RS_ACC1_S-2-8007,재송,35.188080000,129.120090000
RS_ACC1_S-2-8008,센텀,35.179510000,129.124440000
RS_ACC1_S-2-8009,벡스코,35.171240000,129.136710000
RS_ACC1_S-2-8010,신해운대,35.181730000,129.176850000
RS_ACC1_S-2-8011,송정,35.187770000,129.202090000
RS_ACC1_S-2-8012,오시리아,35.196250000,129.208310000
RS_ACC1_S-2-8013,기장,35.244550000,129.218860000
RS_ACC1_S-2-8014,일광,35.267580000,129.233090000
RS_ACC1_S-2-8015,부산원동,35.193700000,129.114200000
RS_ACC1_S-2-8016,좌천,35.311810000,129.245300000
RS_ACC1_S-2-8017,월내,35.328080000,129.276720000
RS_ACC1_S-2-8018,서생,35.346200000,129.293050000
RS_ACC1_S-2-8019,남창,35.418540000,129.282890000
RS_ACC1_S-2-8020,망양,35.456520000,129.287870000
RS_ACC1_S-2-8021,덕하,35.493960000,129.303060000
RS_ACC1_S-2-8022,개운포,35.507910000,129.321190000
RS_ACC1_S-2-8023,태화강,35.538440000,129.353790000
RS_ACC1_S-3-0115,설화명곡,35.798720000,128.489360000
RS_ACC1_S-3-0116,화원,35.804420000,128.500640000
RS_ACC1_S-3-0117,대곡,35.809410000,128.512450000
RS_ACC1_S-3-0118,진천,35.813780000,128.522670000
RS_ACC1_S-3-0119,월배,35.816150000,128.530400000
RS_ACC1_S-3-0120,상인,35.818950000,128.537830000
RS_ACC1_S-3-0121,월촌,35.823740000,128.545520000
RS_ACC1_S-3-0122,송현,35.831070000,128.551770000
RS_ACC1_S-3-0123,성당못,35.837120000,128.557160000
RS_ACC1_S-3-0124,대명,35.839300000,128.565400000
RS_ACC1_S-3-0125,안지랑,35.839220000,128.574070000
RS_ACC1_S-3-0126,현충로,35.840640000,128.580920000
RS_ACC1_S-3-0127,영대병원,35.844380000,128.588600000
RS_ACC1_S-3-0128,교대,35.850720000,128.590600000
RS_ACC1_S-3-0129,명덕,35.857620000,128.591030000
RS_ACC1_S-3-0130,반월당,35.864480000,128.593350000
RS_ACC1_S-3-0131,중앙로,35.870970000,128.594040000
RS_ACC1_S-3-0132,대구,35.876320000,128.597050000
RS_ACC1_S-3-0133,칠성시장,35.876090000,128.605090000
RS_ACC1_S-3-0134,신천,35.874620000,128.617610000
RS_ACC1_S-3-0135,동대구,35.877140000,128.628340000
RS_ACC1_S-3-0136,큰고개,35.884330000,128.632190000
RS_ACC1_S-3-0137,아양교,35.887190000,128.639940000
RS_ACC1_S-3-0138,동촌,35.886040000,128.650340000
RS_ACC1_S-3-0139,해안,35.883580000,128.659330000
RS_ACC1_S-3-0140,방촌,35.879660000,128.670010000
RS_ACC1_S-3-0141,용계,35.876120000,128.681990000
RS_ACC1_S-3-0142,율하,35.869800000,128.692700000
RS_ACC1_S-3-0143,신기,35.866590000,128.702470000
RS_ACC1_S-3-0144,반야월,35.866040000,128.713520000
RS_ACC1_S-3-0145,각산,35.868040000,128.724460000
RS_ACC1_S-3-0146,안심,35.871210000,128.733660000
RS_ACC1_S-3-0216,문양,35.863980000,128.437260000
RS_ACC1_S-3-0217,다사,35.864950000,128.458280000
RS_ACC1_S-3-0218,대실,35.857330000,128.465590000
RS_ACC1_S-3-0219,강창,35.853070000,128.478530000
RS_ACC1_S-3-0220,계명대,35.851490000,128.492020000
RS_ACC1_S-3-0221,성서산업단지,35.851730000,128.507060000
RS_ACC1_S-3-0222,이곡,35.850620000,128.515800000
RS_ACC1_S-3-0223,용산,35.849010000,128.528720000
RS_ACC1_S-3-0224,죽전,35.850710000,128.538800000
RS_ACC1_S-3-0225,감삼,35.854280000,128.548100000
RS_ACC1_S-3-0226,두류,35.857230000,128.555620000
RS_ACC1_S-3-0227,내당,35.860110000,128.564640000
RS_ACC1_S-3-0228,반고개,35.862240000,128.572720000
RS_ACC1_S-3-0229,청라언덕,35.864820000,128.582370000
RS_ACC1_S-3-0230,반월당,35.865450000,128.593410000
RS_ACC1_S-3-0231,경대병원,35.863200000,128.602700000
RS_ACC1_S-3-0232,대구은행,35.859740000,128.614120000
RS_ACC1_S-3-0233,범어,35.859060000,128.626200000
RS_ACC1_S-3-0234,수성구청,35.858800000,128.635590000
RS_ACC1_S-3-0235,만촌,35.858840000,128.644910000
RS_ACC1_S-3-0236,담티,35.854800000,128.653960000
RS_ACC1_S-3-0237,연호,35.846550000,128.671700000
RS_ACC1_S-3-0238,대공원,35.842610000,128.679860000
RS_ACC1_S-3-0239,고산,35.842920000,128.693270000
RS_ACC1_S-3-0240,신매,35.840810000,128.704970000
RS_ACC1_S-3-0241,사월,35.836950000,128.715440000
RS_ACC1_S-3-0242,정평,35.834050000,128.728550000
RS_ACC1_S-3-0243,임당,35.834060000,128.741030000
RS_ACC1_S-3-0244,영남대,35.836350000,128.753130000
RS_ACC1_S-3-0312,칠곡경대병원,35.958280000,128.559890000
RS_ACC1_S-3-0313,학정,35.951560000,128.559200000
RS_ACC1_S-3-0314,팔거,35.944040000,128.558330000
RS_ACC1_S-3-0315,동천,35.937430000,128.556530000
RS_ACC1_S-3-0316,칠곡운암,35.931690000,128.554670000
RS_ACC1_S-3-0317,구암,35.925450000,128.550170000
RS_ACC1_S-3-0318,태전,35.919260000,128.547400000
RS_ACC1_S-3-0319,매천,35.912700000,128.543450000
RS_ACC1_S-3-0320,매천시장,35.903980000,128.545610000
RS_ACC1_S-3-0321,팔달,35.897830000,128.546750000
RS_ACC1_S-3-0322,공단,35.891980000,128.553600000
RS_ACC1_S-3-0323,만평,35.889770000,128.561390000
RS_ACC1_S-3-0324,팔달시장,35.888850000,128.567890000
RS_ACC1_S-3-0325,원대,35.887840000,128.574360000
RS_ACC1_S-3-0326,북구청,35.883820000,128.581450000
RS_ACC1_S-3-0327,달성공원,35.875680000,128.582090000
RS_ACC1_S-3-0328,서문시장,35.869650000,128.582240000
RS_ACC1_S-3-0329,청라언덕,35.864200000,128.582380000
RS_ACC1_S-3-0330,남산,35.856690000,128.583450000
RS_ACC1_S-3-0331,명덕,35.856950000,128.590290000
RS_ACC1_S-3-0332,건들바위,35.855370000,128.599600000
RS_ACC1_S-3-0333,대봉교,35.854990000,128.606030000
RS_ACC1_S-3-0334,수성시장,35.854290000,128.616260000
RS_ACC1_S-3-0335,수성구민운동장,35.852380000,128.625210000
RS_ACC1_S-3-0336,어린이회관,35.845170000,128.624470000
RS_ACC1_S-3-0337,황금,35.839630000,128.624130000
RS_ACC1_S-3-0338,수성못,35.831730000,128.623230000
RS_ACC1_S-3-0339,지산,35.825150000,128.631940000
RS_ACC1_S-3-0340,범물,35.820840000,128.640100000
RS_ACC1_S-3-0341,용지,35.818250000,128.646700000
RS_ACC1_S-4-0100,녹동역,35.107030000,126.933930000
RS_ACC1_S-4-0101,소태역,35.124110000,126.932010000
RS_ACC1_S-4-0102,학동증심사입구역,35.133020000,126.928380000
RS_ACC1_S-4-0103,남광주역,35.147850000,126.921810000
RS_ACC1_S-4-0104,문화전당역,35.144700000,126.919670000
RS_ACC1_S-4-0105,금남로4가역,35.150980000,126.914450000
RS_ACC1_S-4-0106,금남로5가역,35.153710000,126.910930000
RS_ACC1_S-4-0107,양동시장역,35.154180000,126.904490000
RS_ACC1_S-4-0108,돌고개역,35.152050000,126.895640000
RS_ACC1_S-4-0109,농성역,35.153560000,126.883970000
RS_ACC1_S-4-0110,화정역,35.150380000,126.877700000
RS_ACC1_S-4-0111,쌍촌역,35.151790000,126.869520000
RS_ACC1_S-4-0112,운천역,35.150490000,126.858690000
RS_ACC1_S-4-0113,상무역,35.146780000,126.848640000
RS_ACC1_S-4-0114,김대중컨벤션센터,35.143210000,126.841440000
RS_ACC1_S-4-0115,공항역,35.144180000,126.811210000
RS_ACC1_S-4-0116,송정공원역,35.143570000,126.799250000
RS_ACC1_S-4-0117,광주송정역,35.137530000,126.791490000
RS_ACC1_S-4-0118,도산역,35.131710000,126.787940000
RS_ACC1_S-4-0119,평동역,35.124580000,126.769590000
RS_ACC1_S-5-0101,판암,36.316900000,127.458260000
RS_ACC1_S-5-0102,신흥,36.319650000,127.448790000
RS_ACC1_S-5-0103,대동,36.329530000,127.442850000
RS_ACC1_S-5-0104,대전,36.331580000,127.433120000
RS_ACC1_S-5-0105,중앙로,36.328660000,127.425840000
RS_ACC1_S-5-0106,중구청,36.324830000,127.419630000
RS_ACC1_S-5-0107,서대전네거리,36.322420000,127.412520000
RS_ACC1_S-5-0108,오룡,36.328580000,127.405050000
RS_ACC1_S-5-0109,용문,36.338250000,127.393320000
RS_ACC1_S-5-0110,탄방,36.345440000,127.384600000
RS_ACC1_S-5-0111,시청,36.351670000,127.386740000
RS_ACC1_S-5-0112,정부청사,36.357660000,127.381050000
RS_ACC1_S-5-0113,갈마,36.357520000,127.372630000
RS_ACC1_S-5-0114,월평,36.358270000,127.364380000
RS_ACC1_S-5-0115,갑천,36.354580000,127.354470000
RS_ACC1_S-5-0116,유성온천,36.353690000,127.341520000
RS_ACC1_S-5-0117,구암,36.356610000,127.330830000
RS_ACC1_S-5-0118,현충원,36.359020000,127.321530000
RS_ACC1_S-5-0119,월드컵경기장,36.366830000,127.317860000
RS_ACC1_S-5-0120,노은,36.374150000,127.317840000
RS_ACC1_S-5-0121,지족,36.384110000,127.319500000
RS_ACC1_S-5-0122,반석,36.392130000,127.314580000
RS_ACC4_010000,서울,37.554730000,126.970600000
RS_ACC4_010032,용산,37.529850000,126.964320000
RS_ACC4_010091,영등포,37.515220000,126.907700000
RS_ACC4_010239,안양,37.401640000,126.923080000
RS_ACC4_010415,수원,37.266610000,126.999270000
RS_ACC4_010570,오산,37.145540000,127.066980000
RS_ACC4_010670,서정리,37.056940000,127.053210000
RS_ACC4_010754,평택,36.990860000,127.085030000
RS_ACC4_010848,성환,36.915700000,127.126730000
RS_ACC4_010971,천안,36.809000000,127.146750000
RS_ACC4_011154,전의,36.678110000,127.203150000
RS_ACC4_011298,조치원,36.600870000,127.296030000
RS_ACC4_011403,부강,36.532380000,127.365340000
RS_ACC4_011524,신탄진,36.449420000,127.428360000
RS_ACC4_011668,대전,36.332160000,127.434150000
RS_ACC4_011833,옥천,36.297830000,127.565460000
RS_ACC4_011916,이원,36.243780000,127.618190000
RS_ACC4_011972,지탄,36.241670000,127.676410000
RS_ACC4_012016,심천,36.237400000,127.720210000
RS_ACC4_012054,각계,36.208030000,127.725670000
RS_ACC4_012124,영동,36.172280000,127.786730000
RS_ACC4_012270,황간,36.224160000,127.911400000
RS_ACC4_012355,추풍령,36.213160000,127.995970000
RS_ACC4_012546,김천,36.124330000,128.114880000
RS_ACC4_012775,구미,36.128310000,128.330750000
RS_ACC4_012903,약목,36.037680000,128.364120000
RS_ACC4_012968,왜관,35.993110000,128.400590000
RS_ACC4_013067,신동,35.955430000,128.486080000
RS_ACC4_013189,서대구,35.881360000,128.542080000
RS_ACC4_013239,대구,35.875750000,128.595500000
RS_ACC4_013271,동대구,35.879080000,128.628590000
RS_ACC4_013395,경산,35.819930000,128.727370000
RS_ACC4_013542,남성현,35.705100000,128.716840000
RS_ACC4_013629,청도,35.640350000,128.745930000
RS_ACC4_013747,상동,35.556370000,128.760740000
RS_ACC4_013841,밀양,35.474980000,128.771440000
RS_ACC4_013967,삼랑진,35.398910000,128.843440000
RS_ACC4_014058,원동,35.363400000,128.919680000
RS_ACC4_014150,물금,35.306840000,128.985140000
RS_ACC4_014244,화명,35.235140000,129.007870000
RS_ACC4_014281,구포,35.205110000,128.997510000
RS_ACC4_014331,사상,35.162570000,128.988810000
RS_ACC4_014445,부산,35.115160000,129.041560000
RS_ACC4_020040,상봉,37.596840000,127.084920000
RS_ACC4_020178,덕소,37.587110000,127.208760000
RS_ACC4_020524,양평,37.492960000,127.491990000
RS_ACC4_020641,용문,37.482270000,127.594600000
RS_ACC4_020677,지평,37.476130000,127.629910000
RS_ACC4_020717,석불,37.460050000,127.654680000
RS_ACC4_020760,일신,37.445450000,127.688390000
RS_ACC4_020803,매곡,37.436530000,127.730680000
RS_ACC4_020845,양동,37.420340000,127.754870000
RS_ACC4_020864,서원주,37.348670000,127.839110000
RS_ACC4_020884,삼산,37.392280000,127.779660000
RS_ACC4_020947,원주,37.316230000,127.921790000
RS_ACC4_021033,만종,37.356440000,127.896840000
RS_ACC4_021478,봉양,37.129940000,128.129360000
RS_ACC4_021549,제천,37.127620000,128.204960000
RS_ACC4_021784,단양,36.974030000,128.344080000
RS_ACC4_022053,풍기,36.874050000,128.524310000
RS_ACC4_022188,영주,36.811990000,128.625940000
RS_ACC4_022558,안동,36.574420000,128.674870000
RS_ACC4_022844,의성,36.354500000,128.693190000
RS_ACC4_022961,탑리,36.260500000,128.682690000
RS_ACC4_023127,화본,36.127740000,128.695040000
RS_ACC4_023279,신녕,36.034560000,128.790470000
RS_ACC4_023424,북영천,35.966430000,128.916960000
RS_ACC4_023449,영천,35.958910000,128.939470000
RS_ACC4_023601,아화,35.898150000,129.051820000
RS_ACC4_030057,서대전,36.322730000,127.403130000
RS_ACC4_030254,계룡,36.272840000,127.265560000
RS_ACC4_030396,연산,36.212050000,127.200920000
RS_ACC4_030508,논산,36.206820000,127.092850000
RS_ACC4_030607,강경,36.153680000,127.016000000
RS_ACC4_030718,함열,36.080000000,126.956900000
RS_ACC4_030879,익산,35.941690000,126.945260000
RS_ACC4_031056,김제,35.792880000,126.904230000
RS_ACC4_031179,신태인,35.687840000,126.884260000
RS_ACC4_031314,정읍,35.575670000,126.842700000
RS_ACC4_031486,백양사,35.431720000,126.808100000
RS_ACC4_031638,장성,35.299240000,126.779850000
RS_ACC4_031857,광주송정,35.138040000,126.790640000
RS_ACC4_031998,나주,35.013570000,126.717470000
RS_ACC4_032099,다시,35.016330000,126.641100000
RS_ACC4_032212,함평,35.023590000,126.539280000
RS_ACC4_032273,무안,34.962430000,126.517540000
RS_ACC4_032313,몽탄,34.929650000,126.503890000
RS_ACC4_032422,일로,34.848320000,126.477310000
RS_ACC4_032489,임성리,34.820360000,126.436200000
RS_ACC4_032563,목포,34.795870000,126.389430000
RS_ACC4_040133,삼례,35.905560000,127.064920000
RS_ACC4_040257,전주,35.849950000,127.162050000
RS_ACC4_040536,임실,35.633100000,127.290330000
RS_ACC4_040667,오수,35.543130000,127.320270000
RS_ACC4_040868,남원,35.412240000,127.361460000
RS_ACC4_041072,곡성,35.283610000,127.304190000
RS_ACC4_041285,구례구,35.163100000,127.452680000
RS_ACC4_041595,순천,34.946480000,127.502490000
RS_ACC4_041866,여천,34.779130000,127.663850000
RS_ACC4_041993,여수EXPO,34.754000000,127.748690000
RS_ACC4_050044,오송,36.619580000,127.328120000
RS_ACC4_050114,청주,36.647250000,127.391880000
RS_ACC4_050215,오근장,36.699730000,127.477930000
RS_ACC4_050244,청주공항,36.723320000,127.490380000
RS_ACC4_050366,증평,36.777630000,127.583410000
RS_ACC4_050596,음성,36.925600000,127.703970000
RS_ACC4_050719,주덕,36.972950000,127.802420000
RS_ACC4_050827,충주,36.974840000,127.908180000
RS_ACC4_051006,삼탄,37.073250000,128.038840000
RS_ACC4_080045,아산,36.792570000,127.104910000
RS_ACC4_080147,온양온천,36.780480000,127.003200000
RS_ACC4_080309,도고온천,36.749370000,126.889080000
RS_ACC4_080353,신례원,36.726240000,126.848120000
RS_ACC4_080402,예산,36.686310000,126.828990000
RS_ACC4_080492,삽교,36.679530000,126.752360000
RS_ACC4_080622,홍성,36.599650000,126.681040000
RS_ACC4_080749,광천,36.501640000,126.622380000
RS_ACC4_080827,청소,36.446620000,126.591750000
RS_ACC4_080952,대천,36.342010000,126.586320000
RS_ACC4_081099,신웅천,36.235380000,126.606920000
RS_ACC4_081240,판교,36.156000000,126.679680000
RS_ACC4_081318,장항,36.039930000,126.714070000
RS_ACC4_081343,서천,36.080630000,126.708370000
RS_ACC4_081388,군산,35.999020000,126.760500000
RS_ACC4_110147,행신,37.612110000,126.835200000
RS_ACC4_130070,옥수,37.540660000,127.018730000
RS_ACC4_130104,왕십리,37.562070000,127.038480000
RS_ACC4_130126,청량리,37.580690000,127.048480000
RS_ACC4_130531,동두천,37.927970000,127.055010000
RS_ACC4_130556,소요산,37.949000000,127.061240000
RS_ACC4_130597,초성리,37.982250000,127.067710000
RS_ACC4_130627,한탄강,38.006860000,127.065430000
RS_ACC4_130652,전곡,38.024770000,127.071670000
RS_ACC4_130738,연천,38.101410000,127.073910000
RS_ACC4_130774,신망리,38.132350000,127.077560000
RS_ACC4_130844,대광리,38.185170000,127.108400000
RS_ACC4_130888,신탄리,38.212700000,127.139140000
RS_ACC4_130944,백마고지,38.257550000,127.166150000
RS_ACC4_140098,퇴계원,37.648180000,127.143690000
RS_ACC4_140133,사릉,37.651290000,127.176150000
RS_ACC4_140214,평내호평,37.652980000,127.244330000
RS_ACC4_140277,마석,37.652530000,127.311720000
RS_ACC4_140436,청평,37.735340000,127.427130000
RS_ACC4_140576,가평,37.814270000,127.510720000
RS_ACC4_140701,강촌,37.805640000,127.634130000
RS_ACC4_140840,남춘천,37.864200000,127.723670000
RS_ACC4_140873,춘천,37.884760000,127.716990000
RS_ACC4_250428,부발,37.260340000,127.490350000
RS_ACC4_280090,가남,37.197260000,127.535560000
RS_ACC4_280212,감곡장호원,37.127070000,127.635640000
RS_ACC4_280358,앙성온천,37.091960000,127.787030000
RS_ACC4_300200,옥산,36.283200000,128.095270000
RS_ACC4_300271,청리,36.339850000,128.129320000
RS_ACC4_300360,상주,36.410790000,128.164680000
RS_ACC4_300558,함창,36.570420000,128.175480000
RS_ACC4_300600,점촌,36.595860000,128.204550000
RS_ACC4_300669,용궁,36.606780000,128.273040000
RS_ACC4_300733,개포,36.626620000,128.327710000
RS_ACC4_300850,예천,36.647010000,128.443780000
RS_ACC4_320131,대야,35.944690000,126.824110000
RS_ACC4_600147,봉화,36.891300000,128.726540000
RS_ACC4_600379,춘양,36.938610000,128.920170000
RS_ACC4_600476,임기,36.903810000,128.999320000
RS_ACC4_600527,현동,36.937380000,129.012460000
RS_ACC4_600593,분천,36.932400000,129.057940000
RS_ACC4_600655,양원,36.964440000,129.091710000
RS_ACC4_600692,승부,36.992740000,129.084220000
RS_ACC4_600768,석포,37.045730000,129.060360000
RS_ACC4_600870,철암,37.113660000,129.036400000
RS_ACC4_601122,도계,37.229920000,129.044810000
RS_ACC4_601275,신기,37.346460000,129.084730000
RS_ACC4_601485,동해,37.499000000,129.123870000
RS_ACC4_601545,묵호,37.547620000,129.107790000
RS_ACC4_601774,정동진,37.691810000,129.032470000
RS_ACC4_601936,강릉,37.769500000,128.906140000
RS_ACC4_650177,쌍룡,37.175300000,128.329030000
RS_ACC4_650341,영월,37.182260000,128.481490000
RS_ACC4_650515,예미,37.212670000,128.648460000
RS_ACC4_650722,민둥산,37.244440000,128.773260000
RS_ACC4_650782,사북,37.225860000,128.817040000
RS_ACC4_650828,고한,37.201080000,128.852240000
RS_ACC4_650978,태백,37.176040000,128.983560000
RS_ACC4_651053,동백산,37.154650000,129.034340000
RS_ACC4_750046,부전,35.163860000,129.059010000
RS_ACC4_750161,센텀,35.179460000,129.124680000
RS_ACC4_750189,신해운대,35.181950000,129.176720000
RS_ACC4_750329,기장,35.243720000,129.218990000
RS_ACC4_750560,남창,35.418370000,129.283170000
RS_ACC4_750726,태화강,35.539550000,129.355040000
RS_ACC4_750781,북울산,35.614730000,129.372490000
RS_ACC4_830200,하양,35.909630000,128.818860000
RS_ACC4_880099,한림정,35.322370000,128.803840000
RS_ACC4_880177,진영,35.298640000,128.773720000
RS_ACC4_880179,진례,35.266540000,128.762740000
RS_ACC4_880281,창원중앙,35.242670000,128.701550000
RS_ACC4_880310,창원,35.257550000,128.606760000
RS_ACC4_880345,마산,35.236270000,128.576760000
RS_ACC4_880408,중리,35.250020000,128.518530000
RS_ACC4_880520,함안,35.249340000,128.424690000
RS_ACC4_880608,군북,35.252100000,128.351830000
RS_ACC4_880766,반성,35.174790000,128.258020000
RS_ACC4_881014,진주,35.150220000,128.118520000
RS_ACC4_881168,완사,35.134350000,127.977290000
RS_ACC4_881269,북천,35.111690000,127.888560000
RS_ACC4_881386,횡천,35.102360000,127.803250000
RS_ACC4_881460,하동,35.063210000,127.761220000
RS_ACC4_881538,진상,35.016380000,127.719840000
RS_ACC4_881708,광양,34.956230000,127.587630000
RS_ACC4_882034,벌교,34.841800000,127.345790000
RS_ACC4_882141,조성,34.806500000,127.248390000
RS_ACC4_882194,예당,34.778250000,127.202290000
RS_ACC4_882237,득량,34.761100000,127.171060000
RS_ACC4_882328,보성,34.766620000,127.081890000
RS_ACC4_882416,명봉,34.828400000,127.075380000
RS_ACC4_882544,이양,34.890760000,126.990160000
RS_ACC4_882666,능주,34.985300000,126.964470000
RS_ACC4_882755,화순,35.051140000,126.962530000
RS_ACC4_882904,효천,35.104540000,126.877730000
RS_ACC4_882936,서광주,35.124790000,126.847170000
RS_ACC4_883012,광주,35.165790000,126.909410000
RS_ACC4_883086,극락강,35.175430000,126.829300000
RS_ACC4_8B0082,서경주,35.884390000,129.180590000
RS_ACC4_8B0190,신안강,35.970730000,129.233480000
RS_ACC4_8B0351,포항,36.071250000,129.342730000
RS_ACC4_8B0504,월포,36.204050000,129.366780000
RS_ACC4_8B0595,장사,36.284110000,129.369260000
RS_ACC4_8B0671,강구,36.352290000,129.372340000
RS_ACC4_8B0737,영덕,36.410730000,129.377210000
RS_ACC4_H10219,광명,37.416490000,126.884130000
RS_ACC4_H10960,천안아산,36.794200000,127.104610000
RS_ACC4_H12383,김천구미,36.113000000,128.180600000
RS_ACC4_H13421,신경주,35.798410000,129.139370000
RS_ACC4_H13717,울산,35.550690000,129.138280000
RS_ACC4_H20438,공주,36.332700000,127.096540000
RS_ACC4_H30000,수서,37.485550000,127.104470000
RS_ACC4_H30326,동탄,37.200060000,127.095420000
RS_ACC4_H30536,지제,37.018350000,127.069570000
RS_ACC4_N10230,횡성,37.481940000,128.009730000
RS_ACC4_N10428,둔내,37.510230000,128.221290000
RS_ACC4_N10625,평창,37.562570000,128.429480000
RS_ACC4_N10787,진부,37.642690000,128.574520000
